[
  {
    "id": 31,
    "name": "Парк Горького",
    "address": "Пушкинская набережная",
    "river": "Москва",
    "latitude": 55.73013,
    "longitude": 37.597184
  },
  {
    "id": 32,
    "name": "Нескучный сад",
    "address": "г. Москва, Вверх по течению о.Москва от Крымского моста со стороны ЦПКиО им.Горького, сход-трибуна Пушкинской набережной",
    "river": "Москва",
    "latitude": 55.722427,
    "longitude": 37.590694
  },
  {
    "id": 33,
    "name": "Крымский мост",
    "address": "Фрунзенская набережная напротив д.10",
    "river": "Москва",
    "latitude": 55.732427,
    "longitude": 37.596061
  },
  {
    "id": 39,
    "name": "Марьино",
    "address": "Батайский проезд, д.33",
    "river": "Москва",
    "latitude": 55.641785,
    "longitude": 37.725065
  },
  {
    "id": 41,
    "name": "Печатники",
    "address": "ул.Гурьянова, д.35",
    "river": "Москва",
    "latitude": 55.683699,
    "longitude": 37.714149
  },
  {
    "id": 42,
    "name": "Меловой",
    "address": "Нагатинская набережная, владение 74",
    "river": "Москва",
    "latitude": 55.69106,
    "longitude": 37.696817
  },
  {
    "id": 43,
    "name": "Южный речной вокзал",
    "address": "г. Москва, левый берег р. Москва 1,7-2,2 км. (Нагатинское спрямление)",
    "river": "Москва",
    "latitude": 55.689415,
    "longitude": 37.675846
  },
  {
    "id": 44,
    "name": "Кленовый бульвар",
    "address": "г. Москва, Нагатинвская набережная, напротив д.40А",
    "river": "Москва",
    "latitude": 55.686457,
    "longitude": 37.67215
  },
  {
    "id": 45,
    "name": "Воробьевы горы",
    "address": "ул.Косыгина 28с23",
    "river": "Москва",
    "latitude": 55.711738,
    "longitude": 37.546826
  },
  {
    "id": 46,
    "name": "Киевский",
    "address": "г. Москва, Бережковская, между Бородинским и Краснолужском ж/д мостом",
    "river": "Москва",
    "latitude": 55.743672,
    "longitude": 37.571839
  },
  {
    "id": 47,
    "name": "Красный октябрь",
    "address": "г. Москва, Берсеневская набережная, у дома 2 корпус 1",
    "river": "Москва",
    "latitude": 55.745129,
    "longitude": 37.610627
  },
  {
    "id": 48,
    "name": "Сити – Экспоцентр",
    "address": "г. Москва, Краснопресненская набережная, напротив д.14",
    "river": "Москва",
    "latitude": 55.748745,
    "longitude": 37.546796
  },
  {
    "id": 49,
    "name": "Новоспасский",
    "address": "г. Москва по течению р. Москва от Новоспасского моста со стороны Краснохолмской набережной",
    "river": "Москва",
    "latitude": 55.730281,
    "longitude": 37.653392
  },
  {
    "id": 50,
    "name": "Китай-город",
    "address": "Москворецкая набережная д.7",
    "river": "Москва",
    "latitude": 55.748462,
    "longitude": 37.635886
  },
  {
    "id": 51,
    "name": "Патриарший",
    "address": "г. Москва, набережная Пречистенская (Кропоткинская)",
    "river": "Москва",
    "latitude": 55.743972,
    "longitude": 37.608138
  },
  {
    "id": 54,
    "name": "Лужники – Северный",
    "address": "г. Москва, Лужнецкая Западная набережная",
    "river": "Москва",
    "latitude": 55.726423,
    "longitude": 37.545615
  },
  {
    "id": 55,
    "name": "Третьяковский",
    "address": "Болотная набережная д.14, стр.6",
    "river": "Москва",
    "latitude": 55.744502,
    "longitude": 37.618414
  },
  {
    "id": 56,
    "name": "Кутузовский",
    "address": "Набережная Тараса Шевченко 29",
    "river": "Москва",
    "latitude": 55.744387,
    "longitude": 37.538187
  },
  {
    "id": 57,
    "name": "Троице-Лыково",
    "address": "ул.Одинцовская д.28, стр.1",
    "river": "Москва",
    "latitude": 55.79192,
    "longitude": 37.409289
  },
  {
    "id": 60,
    "name": "Парк Фили",
    "address": "г. Москва, Крылатская набережная",
    "river": "Москва",
    "latitude": 55.749486,
    "longitude": 37.475581
  },
  {
    "id": 61,
    "name": "Захарково",
    "address": "г. Москва, берегоукрепление Химкинское-2, проезд Досфлота напротив д.16, корп.1",
    "river": "Канал им. Москвы",
    "latitude": 55.849065,
    "longitude": 37.459077
  },
  {
    "id": 62,
    "name": "Трёхгорный",
    "address": "Краснопресненская набережная, 10, корп. 7",
    "river": "Москва",
    "latitude": 55.754254,
    "longitude": 37.56394
  },
  {
    "id": 64,
    "name": "Сити – Багратион",
    "address": "г. Москва, набережная Тараса Шевченко у дома 23",
    "river": "Москва",
    "latitude": 55.746481,
    "longitude": 37.545233
  },
  {
    "id": 67,
    "name": "Лужники - Центральный",
    "address": "г. Москва, Центральная Лужнецкая набережная",
    "river": "Москва",
    "latitude": 55.713129,
    "longitude": 37.549501
  },
  {
    "id": 71,
    "name": "Северный речной вокзал",
    "address": "Ленинградское шоссе, д.51",
    "river": "Канал им. Москвы",
    "latitude": 55.851125,
    "longitude": 37.466138
  },
  {
    "id": 72,
    "name": "Андреевский",
    "address": "Андреевская набережная д.2, стр.7",
    "river": "Москва",
    "latitude": 55.711646,
    "longitude": 37.572238
  },
  {
    "id": 73,
    "name": "Зарядье",
    "address": "г. Москва, Москворецкая набережная, парк Зарядье",
    "river": "Москва",
    "latitude": 55.749528,
    "longitude": 37.629242
  },
  {
    "id": 75,
    "name": "Серебряный бор-2",
    "address": "г. Москва, Серебряный бор, ул. Таманская напротив д. 91А, стр. 1",
    "river": "Москва",
    "latitude": 55.785823,
    "longitude": 37.424496
  }
]
